[{"_id":{"$oid":"5e68c7806143e808a8582891"},"High School Ranking":"1","High School Name":"Academy For Information Technology","City":"Scotch Plains","Latitude":"40.617205","longitude":"-74.357257"},
{"_id":{"$oid":"5e68c7806143e808a8582892"},"High School Ranking":"2","High School Name":"Union County Magnet High School","City":"Scotch Plains","Latitude":"40.618046","longitude":"-74.35697"},
{"_id":{"$oid":"5e68c7806143e808a8582893"},"High School Ranking":"3","High School Name":"Middlesex County Vocational Academy Math Science &Engineering Techn","City":"Edison","Latitude":"40.504525","longitude":"-74.369535"},
{"_id":{"$oid":"5e68c7806143e808a8582894"},"High School Ranking":"4","High School Name":"Academy For Allied Health Sciences","City":"Scotch Plains","Latitude":"40.618146","longitude":"-74.35822"},
{"_id":{"$oid":"5e68c7806143e808a8582895"},"High School Ranking":"5","High School Name":"Communications High School","City":"Wall","Latitude":"40.169887","longitude":"-74.061955"},
{"_id":{"$oid":"5e68c7806143e808a8582896"},"High School Ranking":"6","High School Name":"Monmouth County Academy of Allied Health and Science","City":"Neptune","Latitude":"40.214652","longitude":"-74.038054"},
{"_id":{"$oid":"5e68c7806143e808a8582897"},"High School Ranking":"7","High School Name":"Bergen County Academies","City":"Hackensack","Latitude":"40.901939","longitude":"-74.033993"},
{"_id":{"$oid":"5e68c7806143e808a8582898"},"High School Ranking":"8","High School Name":"Biotechnology High School","City":"Freehold","Latitude":"40.263106","longitude":"-74.248292"},
{"_id":{"$oid":"5e68c7806143e808a8582899"},"High School Ranking":"9","High School Name":"Hunterdon County Academies","City":"Annandale","Latitude":"40.62813","longitude":"-74.883611"},
{"_id":{"$oid":"5e68c7806143e808a858289a"},"High School Ranking":"10","High School Name":"Union County Technical","City":"Scotch Plains","Latitude":"40.616571","longitude":"-74.358215"},
{"_id":{"$oid":"5e68c7806143e808a858289b"},"High School Ranking":"11","High School Name":"High Technology High School","City":"Lincroft","Latitude":"40.324634","longitude":"-74.128701"},
{"_id":{"$oid":"5e68c7806143e808a858289c"},"High School Ranking":"12","High School Name":"Academy for Mathematics Science and Engineering","City":"Rockaway","Latitude":"40.890258","longitude":"-74.52915"},
{"_id":{"$oid":"5e68c7806143e808a858289d"},"High School Ranking":"13","High School Name":"Academy for Biotechnology","City":"Mountain Lakes","Latitude":"40.895526","longitude":"-74.426615"},
{"_id":{"$oid":"5e68c7806143e808a858289e"},"High School Ranking":"14","High School Name":"Bergen County Technical High School - Teterboro","City":"Teterboro","Latitude":"40.860628","longitude":"-74.054703"},
{"_id":{"$oid":"5e68c7806143e808a858289f"},"High School Ranking":"15","High School Name":"Morris County School of Technology","City":"Denville","Latitude":"40.878144","longitude":"-74.479201"},
{"_id":{"$oid":"5e68c7806143e808a85828a0"},"High School Ranking":"16","High School Name":"Dr Ronald McNair High School","City":"Jersey City","Latitude":"40.726749","longitude":"-74.047465"},
{"_id":{"$oid":"5e68c7806143e808a85828a1"},"High School Ranking":"17","High School Name":"Middlesex County Vocational Academy Allied Health & Biomedical Science","City":"Woodbridge","Latitude":"40.540612","longitude":"-74.27853"},
{"_id":{"$oid":"5e68c7806143e808a85828a2"},"High School Ranking":"18","High School Name":"Marine Academy Of Science And Technology","City":"Highlands","Latitude":"40.459902","longitude":"-74.000906"},
{"_id":{"$oid":"5e68c7806143e808a85828a3"},"High School Ranking":"19","High School Name":"Academy for Environmental Science","City":"Oak Ridge","Latitude":"41.016674","longitude":"-74.552729"},
{"_id":{"$oid":"5e68c7806143e808a85828a4"},"High School Ranking":"20","High School Name":"Northern Valley Regional High School At Demarest","City":"Demarest","Latitude":"40.963054","longitude":"-73.972806"},
{"_id":{"$oid":"5e68c7806143e808a85828a5"},"High School Ranking":"21","High School Name":"Marine Academy of Technology and Environmental Science","City":"Manahawkin","Latitude":"39.71701","longitude":"-74.255851"},
{"_id":{"$oid":"5e68c7806143e808a85828a6"},"High School Ranking":"22","High School Name":"Summit High School","City":"Summit","Latitude":"40.720464","longitude":"-74.370912"},
{"_id":{"$oid":"5e68c7806143e808a85828a7"},"High School Ranking":"23","High School Name":"Pascack Hills High School","City":"Montvale","Latitude":"41.049784","longitude":"-74.049452"},
{"_id":{"$oid":"5e68c7806143e808a85828a8"},"High School Ranking":"24","High School Name":"Academy For Performing Arts","City":"Scotch Plains","Latitude":"40.617366","longitude":"-74.35839"},
{"_id":{"$oid":"5e68c7806143e808a85828a9"},"High School Ranking":"25","High School Name":"Technology High School","City":"Newark","Latitude":"40.75753","longitude":"-74.169087"},
{"_id":{"$oid":"5e68c7806143e808a85828aa"},"High School Ranking":"26","High School Name":"Glen Ridge High School","City":"Glen Ridge","Latitude":"40.799291","longitude":"-74.206546"},
{"_id":{"$oid":"5e68c7806143e808a85828ab"},"High School Ranking":"27","High School Name":"Northern Valley Regional High School at Old Tappan","City":"Old Tappan","Latitude":"41.009967","longitude":"-73.979481"},
{"_id":{"$oid":"5e68c7806143e808a85828ac"},"High School Ranking":"28","High School Name":"New Providence High School","City":"New Providence","Latitude":"40.700646","longitude":"-74.409017"},
{"_id":{"$oid":"5e68c7806143e808a85828ad"},"High School Ranking":"29","High School Name":"Infinity Institute","City":"Jersey City","Latitude":"40.696225","longitude":"-74.094102"},
{"_id":{"$oid":"5e68c7806143e808a85828ae"},"High School Ranking":"30","High School Name":"John P. Stevens High School","City":"Edison","Latitude":"40.580506","longitude":"-74.36157"},
{"_id":{"$oid":"5e68c7806143e808a85828af"},"High School Ranking":"31","High School Name":"River Dell Regional High School","City":"Oradell","Latitude":"40.944262","longitude":"-74.0367"},
{"_id":{"$oid":"5e68c7806143e808a85828b0"},"High School Ranking":"32","High School Name":"Northern Highlands Regional High School","City":"Allendale","Latitude":"41.035787","longitude":"-74.143612"},
{"_id":{"$oid":"5e68c7806143e808a85828b1"},"High School Ranking":"33","High School Name":"West Morris Central High School","City":"Chester","Latitude":"40.810049","longitude":"-74.728355"},
{"_id":{"$oid":"5e68c7806143e808a85828b2"},"High School Ranking":"34","High School Name":"Ridge High School","City":"Basking Ridge","Latitude":"40.694157","longitude":"-74.547087"},
{"_id":{"$oid":"5e68c7806143e808a85828b3"},"High School Ranking":"35","High School Name":"Haddonfield Memorial High School","City":"Haddonfield","Latitude":"39.902031","longitude":"-75.026943"},
{"_id":{"$oid":"5e68c7806143e808a85828b4"},"High School Ranking":"36","High School Name":"Millburn High School","City":"Millburn","Latitude":"40.719938","longitude":"-74.315774"},
{"_id":{"$oid":"5e68c7806143e808a85828b5"},"High School Ranking":"37","High School Name":"West Morris Mendham High School","City":"Mendham","Latitude":"40.777592","longitude":"-74.5912"},
{"_id":{"$oid":"5e68c7806143e808a85828b6"},"High School Ranking":"38","High School Name":"Moorestown High School","City":"Moorestown","Latitude":"39.986272","longitude":"-74.943269"},
{"_id":{"$oid":"5e68c7806143e808a85828b7"},"High School Ranking":"39","High School Name":"Livingston High School","City":"Livingston","Latitude":"40.784213","longitude":"-74.320473"},
{"_id":{"$oid":"5e68c7806143e808a85828b8"},"High School Ranking":"40","High School Name":"Montgomery High School","City":"Skillman","Latitude":"40.417401","longitude":"-74.706262"},
{"_id":{"$oid":"5e68c7806143e808a85828b9"},"High School Ranking":"41","High School Name":"West Essex High School","City":"North Caldwell","Latitude":"40.868879","longitude":"-74.269985"},
{"_id":{"$oid":"5e68c7806143e808a85828ba"},"High School Ranking":"42","High School Name":"Tenafly High School","City":"Tenafly","Latitude":"40.932991","longitude":"-73.966218"},
{"_id":{"$oid":"5e68c7806143e808a85828bb"},"High School Ranking":"43","High School Name":"Whippany Park High School","City":"Whippany","Latitude":"40.814495","longitude":"-74.424105"},
{"_id":{"$oid":"5e68c7806143e808a85828bc"},"High School Ranking":"44","High School Name":"Ridgewood High School","City":"Ridgewood","Latitude":"40.977902","longitude":"-74.10584"},
{"_id":{"$oid":"5e68c7806143e808a85828bd"},"High School Ranking":"45","High School Name":"Ramapo High School","City":"Franklin Lakes","Latitude":"40.998522","longitude":"-74.191872"},
{"_id":{"$oid":"5e68c7806143e808a85828be"},"High School Ranking":"46","High School Name":"John F. Scarpa Technical Education Center of Cumberland Coun","City":"Vineland","Latitude":"39.435226","longitude":"-75.055269"},
{"_id":{"$oid":"5e68c7806143e808a85828bf"},"High School Ranking":"47","High School Name":"Montville Township High School","City":"Montville","Latitude":"40.893814","longitude":"-74.360381"},
{"_id":{"$oid":"5e68c7806143e808a85828c0"},"High School Ranking":"48","High School Name":"Fair Lawn High School","City":"Fair Lawn","Latitude":"40.932424","longitude":"-74.124581"},
{"_id":{"$oid":"5e68c7806143e808a85828c1"},"High School Ranking":"49","High School Name":"Westfield Senior High School","City":"Westfield","Latitude":"40.644444","longitude":"-74.348629"},
{"_id":{"$oid":"5e68c7806143e808a85828c2"},"High School Ranking":"50","High School Name":"Hunterdon Central Regional High School District","City":"Flemington","Latitude":"40.51637","longitude":"-74.852198"}]
